City_ID,City,Country,Lat,Lng,Max Temp,Humidity,Cloudiness,Wind Speed,Current Description
0,Saint George,US,37.1041,-113.5841,37.99,48,0,3.44,clear sky
1,Chuy,UY,-33.6971,-53.4616,67.17,60,91,4.34,overcast clouds
2,Ribeira Grande,PT,38.5167,-28.7,59.4,51,40,9.22,scattered clouds
3,Severo-Kurilsk,RU,50.6789,156.125,28.51,89,97,5.55,overcast clouds
4,Albany,US,42.6001,-73.9662,21.76,62,22,3.0,few clouds
5,Lengshuitan,CN,26.4111,111.5956,76.53,67,87,5.88,overcast clouds
6,Huilong,CN,31.8111,121.655,57.92,97,99,9.04,overcast clouds
7,Kalanguy,RU,51.0167,116.5167,3.54,95,79,4.36,broken clouds
8,Ust-Omchug,RU,61.15,149.6333,-7.53,99,100,2.53,overcast clouds
9,Lompoc,US,34.6391,-120.4579,45.93,87,100,21.99,overcast clouds
10,Georgetown,MY,5.4112,100.3354,82.33,88,40,4.61,thunderstorm
11,Asau,RO,46.4333,26.4,36.95,52,100,5.12,overcast clouds
12,Kano,NG,12.0001,8.5167,93.09,11,100,13.8,haze
13,Ballina,AU,-28.8667,153.5667,66.02,99,59,7.67,broken clouds
14,Bluff,NZ,-46.6,168.3333,50.81,88,6,3.65,clear sky
15,Ashqelon,IL,31.6693,34.5715,57.81,59,63,17.22,broken clouds
16,Rubiataba,BR,-15.1644,-49.8033,73.58,85,98,3.02,overcast clouds
17,Bethel,US,41.3712,-73.414,26.01,61,0,13.8,clear sky
18,Punta Arenas,CL,-53.15,-70.9167,48.31,61,20,37.98,few clouds
19,Yar-Sale,RU,66.8333,70.8333,3.87,99,98,6.38,overcast clouds
20,Mataura,NZ,-46.1927,168.8643,50.49,99,12,2.3,few clouds
21,Kaitangata,NZ,-46.2817,169.8464,51.85,95,17,5.23,few clouds
22,Nikolskoye,RU,59.7035,30.7861,39.09,96,71,3.56,broken clouds
23,Atuona,PF,-9.8,-139.0333,78.01,74,100,15.01,overcast clouds
24,Busselton,AU,-33.65,115.3333,68.67,86,0,2.59,clear sky
25,Upata,VE,8.0086,-62.3989,74.23,77,100,7.65,overcast clouds
26,Mahebourg,MU,-20.4081,57.7,77.29,88,100,9.22,light rain
27,Camacha,PT,33.0833,-16.3333,62.02,63,40,12.66,scattered clouds
28,Mar Del Plata,AR,-38.0023,-57.5575,68.88,67,2,18.01,clear sky
29,Bundaberg,AU,-24.85,152.35,68.29,88,40,8.05,scattered clouds
30,Jamestown,US,42.097,-79.2353,17.19,57,100,18.41,overcast clouds
31,Hambantota,LK,6.1241,81.1185,89.94,66,40,6.91,scattered clouds
32,Verkhnyaya Inta,RU,65.9811,60.3094,18.93,83,91,8.97,overcast clouds
33,Honningsvag,NO,70.9821,25.9704,35.24,81,100,18.68,overcast clouds
34,Saldanha,ZA,-33.0117,17.9442,63.79,67,100,18.23,overcast clouds
35,Puerto Ayora,EC,-0.7393,-90.3518,75.54,98,10,0.56,clear sky
36,East London,ZA,-33.0153,27.9116,72.54,83,0,13.8,clear sky
37,Cherskiy,RU,68.75,161.3,-16.55,100,55,5.37,broken clouds
38,Bredasdorp,ZA,-34.5322,20.0403,63.72,72,100,8.05,light rain
39,Butaritari,KI,3.0707,172.7902,81.27,77,6,20.47,clear sky
40,Plouzane,FR,48.3833,-4.6167,51.98,73,75,18.41,broken clouds
41,San Vicente,AR,-26.6167,-54.1333,65.17,94,100,0.67,overcast clouds
42,Bilma,NE,18.6853,12.9164,84.13,6,0,12.88,clear sky
43,Faanui,PF,-16.4833,-151.75,81.72,72,99,10.51,overcast clouds
44,Hithadhoo,MV,-0.6,73.0833,84.16,68,92,9.4,overcast clouds
45,Coronado,US,32.6859,-117.1831,54.41,71,100,8.05,overcast clouds
46,Rikitea,PF,-23.1203,-134.9692,78.85,73,98,12.39,overcast clouds
47,Avera,US,33.194,-82.5271,32.56,40,0,2.55,clear sky
48,Karratha,AU,-20.7377,116.8463,88.81,59,15,13.09,few clouds
49,Cape Town,ZA,-33.9258,18.4232,68.11,75,75,5.75,broken clouds
50,Kurchum,KZ,48.5722,83.6542,34.72,99,100,11.88,light snow
51,Yellowknife,CA,62.456,-114.3525,-14.28,76,20,8.05,few clouds
52,Grand-Lahou,CI,5.1367,-5.0242,84.78,71,100,9.48,overcast clouds
53,Markala,ML,13.7021,-6.0659,97.81,7,70,11.32,broken clouds
54,Vaini,TO,-21.2,-175.2,73.56,100,20,0.0,few clouds
55,Diamantina,BR,-18.2494,-43.6003,72.5,72,98,4.43,light rain
56,Ewo,CG,-0.8725,14.8206,87.98,48,78,4.59,broken clouds
57,Haines Junction,CA,60.7522,-137.5108,2.17,99,100,3.2,overcast clouds
58,San,ML,13.3034,-4.8956,99.45,7,61,8.37,broken clouds
59,Dikson,RU,73.5069,80.5464,-7.69,96,100,16.69,overcast clouds
60,Tucumcari,US,35.1717,-103.725,30.04,64,0,4.61,clear sky
61,Thompson,CA,55.7435,-97.8558,-11.04,77,75,0.0,broken clouds
62,Xiongzhou,CN,25.1167,114.3,75.7,66,85,2.19,overcast clouds
63,Tasiilaq,GL,65.6145,-37.6368,32.16,87,89,12.46,overcast clouds
64,Ailigandi,PA,9.2333,-78.0167,78.71,86,60,5.5,broken clouds
65,Kavaratti,IN,10.5669,72.642,84.04,69,10,5.35,clear sky
66,Bengkulu,ID,-3.8004,102.2655,78.75,88,98,4.83,heavy intensity rain
67,Chernyshevskiy,RU,63.0128,112.4714,-8.45,98,100,3.24,overcast clouds
68,Nguruka,TZ,-5.1092,31.0419,75.88,72,100,4.7,light rain
69,Esperance,AU,-33.8667,121.9,67.84,86,100,18.63,overcast clouds
70,Prince Rupert,CA,54.3161,-130.3201,38.89,93,75,6.91,broken clouds
71,Uklana Mandi,IN,29.5023,75.8849,86.49,18,0,4.68,clear sky
72,Nikko,JP,36.75,139.6167,45.3,79,100,5.14,overcast clouds
73,Castro,BR,-24.7911,-50.0119,65.03,96,100,5.01,moderate rain
74,Lata,PT,40.1629,-8.3327,58.08,57,100,8.7,overcast clouds
75,Muros,ES,42.7762,-9.0603,51.67,86,100,21.68,overcast clouds
76,San Carlos,VE,9.6612,-68.5827,79.54,68,99,2.51,overcast clouds
77,Marzuq,YE,14.4,46.4667,83.07,20,11,11.86,few clouds
78,Oga,IT,46.4631,10.347,42.69,71,5,7.45,clear sky
79,Ushuaia,AR,-54.8,-68.3,44.22,89,81,11.65,light rain
80,Mamit,IN,23.9333,92.4833,72.34,24,84,2.57,broken clouds
81,Pangnirtung,CA,66.1451,-65.7125,-22.09,85,18,4.5,few clouds
82,Tuktoyaktuk,CA,69.4541,-133.0374,-22.0,76,0,12.66,clear sky
83,Airai,TL,-8.9266,125.4092,62.22,94,18,1.68,few clouds
84,Hermanus,ZA,-34.4187,19.2345,62.8,69,100,14.2,light rain
85,Mitzic,GA,0.7821,11.549,86.02,49,71,5.88,broken clouds
86,Barrow,US,71.2906,-156.7887,-23.78,69,0,9.22,clear sky
87,Mujiayingzi,CN,42.1167,118.7833,38.05,43,100,7.31,light rain
88,Alugan,PH,12.2188,125.4808,79.99,87,41,7.38,scattered clouds
89,Santa Maria,BR,-29.6842,-53.8069,69.19,69,67,9.24,broken clouds
90,Fortuna,US,40.5982,-124.1573,46.65,95,100,6.91,overcast clouds
91,New Norfolk,AU,-42.7826,147.0587,62.1,97,33,1.63,scattered clouds
92,Taksimo,RU,56.3444,114.8794,3.0,94,100,1.77,overcast clouds
93,Coihaique,CL,-45.5752,-72.0662,57.15,35,40,6.91,scattered clouds
94,Avarua,CK,-21.2078,-159.775,75.25,100,20,1.14,few clouds
95,Port Alfred,ZA,-33.5906,26.891,71.22,91,100,20.87,moderate rain
96,Luderitz,NA,-26.6481,15.1594,69.66,64,90,21.25,overcast clouds
97,Aklavik,CA,68.2191,-135.0107,-27.56,95,11,5.55,few clouds
98,Chapais,CA,49.7834,-74.8492,-9.62,91,100,9.6,overcast clouds
99,Norman Wells,CA,65.282,-126.8329,-14.76,70,20,11.5,few clouds
100,Lokosovo,RU,61.1333,74.8167,4.73,94,99,3.56,overcast clouds
101,Urucara,BR,-2.5364,-57.76,81.46,80,34,3.27,scattered clouds
102,Vao,NC,-22.6667,167.4833,79.56,78,73,14.97,broken clouds
103,Carnarvon,AU,-24.8667,113.6333,78.87,69,0,19.57,clear sky
104,Kupino,RU,54.3663,77.2981,10.65,84,99,16.55,overcast clouds
105,Rawson,AR,-43.3002,-65.1023,65.68,48,62,15.37,broken clouds
106,Saint-Philippe,RE,-21.3585,55.7679,78.39,89,88,13.98,moderate rain
107,Nanortalik,GL,60.1432,-45.2371,12.9,62,100,5.97,overcast clouds
108,Namibe,AO,-15.1961,12.1522,76.19,73,100,10.92,overcast clouds
109,Charters Towers,AU,-20.1,146.2667,73.35,78,93,14.38,overcast clouds
110,Bambous Virieux,MU,-20.3428,57.7575,77.25,88,100,9.22,light rain
111,Saskylakh,RU,71.9167,114.0833,-26.82,100,63,4.74,broken clouds
112,Torbay,CA,47.6666,-52.7314,54.75,91,100,41.43,moderate rain
113,Maltahohe,NA,-24.8333,16.9833,77.88,45,100,20.67,light rain
114,Victoria,HK,22.2855,114.1577,77.18,84,1,5.01,clear sky
115,Clyde River,CA,70.4692,-68.5914,-18.06,93,100,1.54,overcast clouds
116,Pevek,RU,69.7008,170.3133,-14.26,99,100,4.09,overcast clouds
117,Nyurba,RU,63.2842,118.3319,-1.46,99,100,2.91,overcast clouds
118,Hattiesburg,US,31.3271,-89.2903,35.65,71,0,0.0,clear sky
119,Lebu,CL,-37.6167,-73.65,60.78,73,8,14.36,clear sky
120,Cabo San Lucas,MX,22.8909,-109.9124,64.51,82,0,9.22,clear sky
121,Mayumba,GA,-3.432,10.6554,82.83,70,47,6.08,scattered clouds
122,Fallon,US,39.4735,-118.7774,46.45,43,20,5.75,few clouds
123,Iralaya,HN,15.0,-83.2333,79.9,78,1,11.52,clear sky
124,Moron,AR,-34.6534,-58.6198,69.94,63,0,2.24,clear sky
125,Hasaki,JP,35.7333,140.8333,61.2,75,100,20.22,overcast clouds
126,Teahupoo,PF,-17.8333,-149.2667,71.56,76,100,8.7,light rain
127,Sola,VU,-13.8833,167.55,81.52,75,100,9.08,overcast clouds
128,Kiama,AU,-34.6833,150.8667,66.99,89,8,5.14,clear sky
129,Saint-Georges,GD,12.0564,-61.7485,83.88,61,20,20.71,few clouds
130,Rehoboth,NA,-23.3167,17.0833,81.19,39,100,18.9,overcast clouds
131,Wuchang,CN,44.9143,127.15,28.74,92,95,5.97,overcast clouds
132,Inongo,CD,-1.95,18.2667,79.9,69,63,2.51,broken clouds
133,Maniitsoq,GL,65.4167,-52.9,1.96,79,100,3.85,overcast clouds
134,Chifeng,CN,42.2683,118.9636,38.12,44,100,9.62,light rain
135,Tuatapere,NZ,-46.1333,167.6833,51.53,93,3,3.38,clear sky
136,Ponta Do Sol,PT,32.6667,-17.1,65.71,85,100,8.66,overcast clouds
137,Kavieng,PG,-2.5744,150.7967,82.89,74,43,11.03,scattered clouds
138,Hobart,AU,-42.8794,147.3294,62.46,80,100,9.22,overcast clouds
139,Sitka,US,57.0531,-135.33,35.49,87,100,4.61,overcast clouds
140,Saint Anthony,US,45.0205,-93.218,28.45,80,0,9.22,clear sky
141,Krasnoselkup,RU,65.7,82.4667,-4.38,97,39,8.19,scattered clouds
142,Kota Bahru,MY,6.1333,102.2386,78.75,94,40,0.0,scattered clouds
143,Valdivia,CL,-39.8142,-73.2459,55.49,66,2,4.27,clear sky
144,Srednekolymsk,RU,67.45,153.6833,-20.65,100,91,4.14,overcast clouds
145,Furtwangen,DE,48.05,8.2,56.46,41,38,6.78,scattered clouds
146,Yumen,CN,40.2833,97.2,53.85,22,100,4.5,overcast clouds
147,Buraydah,SA,26.326,43.975,73.85,13,99,9.57,overcast clouds
148,Zyryanka,RU,65.75,150.85,-15.61,100,100,2.66,overcast clouds
149,Khatanga,RU,71.9667,102.5,-5.44,98,100,11.03,overcast clouds
150,Provideniya,RU,64.3833,-173.3,13.35,51,0,12.33,clear sky
151,Den Helder,NL,52.9599,4.7593,62.02,53,100,20.0,overcast clouds
152,Narsaq,GL,60.9167,-46.05,10.62,66,100,9.06,overcast clouds
153,Puerto Suarez,BO,-18.95,-57.8,75.76,83,100,6.91,overcast clouds
154,Cleethorpes,GB,53.5605,-0.0323,55.96,62,75,17.27,broken clouds
155,Samarai,PG,-10.6167,150.6667,83.61,78,92,12.03,overcast clouds
156,Qaanaaq,GL,77.484,-69.3632,-8.63,72,100,3.67,overcast clouds
157,Mananjary,MG,-21.2167,48.3333,78.21,87,100,7.2,moderate rain
158,Mareeba,AU,-17.0,145.4333,74.44,93,87,3.15,light rain
159,Alta Floresta,BR,-9.8756,-56.0861,87.62,74,40,9.22,scattered clouds
160,Colomi,BO,-17.35,-65.8667,53.62,86,100,1.36,overcast clouds
161,Benjamin Hill,MX,30.1667,-111.1,50.54,23,0,4.21,clear sky
162,Solnechnyy,RU,50.7214,136.6319,10.11,95,80,4.41,broken clouds
163,Perumpavur,IN,10.1333,76.4833,85.91,58,97,4.61,haze
164,Lorut,AM,40.9372,44.7714,26.08,81,100,2.57,light snow
165,Castelo Do Piaui,BR,-5.3222,-41.5525,82.74,72,19,2.04,few clouds
166,Lavrentiya,RU,65.5833,-171.0,1.92,71,1,7.43,clear sky
167,Laguna,US,38.421,-121.4238,55.69,83,75,8.05,broken clouds
168,Okhtyrka,UA,50.3104,34.8988,30.88,71,100,2.42,overcast clouds
169,Kapaa,US,22.0752,-159.319,73.72,78,40,11.5,scattered clouds
170,Bathsheba,BB,13.2167,-59.5167,81.21,69,40,24.16,scattered clouds
171,San Cristobal,VE,7.7669,-72.225,69.98,84,100,1.92,overcast clouds
172,Usak,TR,38.5,29.4167,35.58,32,61,7.81,broken clouds
173,Zhovtneve,UA,50.6637,24.2492,37.69,58,97,6.91,overcast clouds
174,Rabo De Peixe,PT,37.8,-25.5833,58.51,85,20,11.5,few clouds
175,Matveyev Kurgan,RU,47.5645,38.8695,29.88,38,54,7.49,broken clouds
176,Ruse,BG,43.8564,25.9708,42.78,33,62,3.47,broken clouds
177,Tessalit,ML,20.1986,1.0114,91.02,5,0,6.78,clear sky
178,Walvis Bay,NA,-22.9575,14.5053,69.1,66,100,20.94,overcast clouds
179,Nioki,CD,-2.7167,17.6833,88.99,47,74,5.88,broken clouds
180,Saint-Francois,FR,46.4154,3.9054,53.04,59,100,14.97,light rain
181,Chokurdakh,RU,70.6333,147.9167,-10.55,91,100,5.68,overcast clouds
182,Boditi,ET,6.9667,37.8667,86.27,14,79,6.49,broken clouds
183,Sisimiut,GL,66.9395,-53.6735,-1.26,91,100,3.27,overcast clouds
184,Itacare,BR,-14.2775,-38.9967,84.45,61,99,5.93,light rain
185,Lazaro Cardenas,MX,17.9583,-102.2,67.6,75,0,3.56,clear sky
186,Zhigansk,RU,66.7697,123.3711,-17.55,100,86,9.15,overcast clouds
187,Abu Samrah,SY,35.3029,37.1841,40.69,87,100,7.0,overcast clouds
188,Vardo,NO,70.3705,31.1107,32.49,79,49,11.7,scattered clouds
189,Mandapam,IN,9.2833,79.1167,82.31,71,100,20.36,overcast clouds
190,Te Anau,NZ,-45.4167,167.7167,50.72,92,3,0.87,clear sky
191,Kisangani,CD,0.5167,25.2,88.05,47,100,2.89,overcast clouds
192,Ilulissat,GL,69.2167,-51.1,3.22,60,100,8.05,overcast clouds
193,Malacacheta,BR,-17.8422,-42.0767,77.88,67,100,2.91,overcast clouds
194,Corn Island,NI,12.1694,-83.0418,80.44,79,1,17.74,clear sky
195,Talnakh,RU,69.4865,88.3972,-17.18,91,95,6.42,overcast clouds
196,Hami,CN,42.8,93.45,57.31,26,99,7.99,overcast clouds
197,Nizwa,OM,22.9333,57.5333,93.15,16,0,9.42,clear sky
198,Kondinskoye,RU,59.6481,67.41,4.89,95,100,4.45,overcast clouds
199,Deputatskiy,RU,69.3,139.9,-17.73,100,100,1.03,overcast clouds
200,Gimli,CA,50.6336,-96.9907,5.02,85,47,10.36,scattered clouds
201,Iranshahr,IR,27.2025,60.6848,95.34,13,0,11.5,clear sky
202,Aykhal,RU,66.0,111.5,-20.13,100,100,1.9,overcast clouds
203,Teya,RU,60.3778,92.6267,-9.2,100,98,2.21,overcast clouds
204,Kungurtug,RU,50.5994,97.5228,14.16,96,99,1.86,overcast clouds
205,Uttaradit,TH,17.6667,100.5,89.46,36,100,2.86,overcast clouds
206,Numaligarh,IN,26.6333,93.75,81.59,23,100,0.78,overcast clouds
207,Okahandja,NA,-21.9833,16.9167,74.52,58,100,18.54,light rain
208,Hilo,US,19.7297,-155.09,70.61,72,75,6.91,light rain
209,Lewiston,US,44.1003,-70.2148,25.36,66,0,20.71,clear sky
210,Mikkeli,FI,61.6886,27.2723,44.71,36,0,5.75,clear sky
211,Micula,RO,47.9,22.95,48.16,35,0,2.66,clear sky
212,Upernavik,GL,72.7868,-56.1549,-7.78,92,100,7.87,overcast clouds
213,Maniwaki,CA,46.3834,-75.966,8.98,66,96,6.91,overcast clouds
214,Kochki,RU,54.3358,80.4806,8.85,84,87,17.22,overcast clouds
215,Sept-Iles,CA,50.2001,-66.3821,12.06,68,75,19.57,broken clouds
216,Mahajanga,MG,-15.7167,46.3167,89.62,58,20,8.05,few clouds
217,Ancud,CL,-41.8697,-73.8203,52.47,60,95,2.55,overcast clouds
218,Kaeo,NZ,-35.1,173.7833,64.33,90,89,6.62,overcast clouds
219,Sauda,NO,59.6506,6.3542,41.76,90,100,8.86,light rain
220,Faya,SA,18.3851,42.4509,75.31,45,3,10.87,clear sky
221,Teruel,ES,40.6667,-0.6667,47.05,41,13,11.5,few clouds
222,Hofn,IS,64.2539,-15.2082,35.62,80,20,9.22,few clouds
223,Leshukonskoye,RU,64.8989,45.7622,26.2,87,100,9.17,overcast clouds
224,Fengzhen,CN,40.4394,113.1536,50.79,38,100,19.01,overcast clouds
225,Berezhany,UA,49.45,24.9333,34.66,63,99,5.14,overcast clouds
226,Lahat,ID,-3.8,103.5333,75.11,98,100,2.82,light rain
227,Leningradskiy,RU,69.3833,178.4167,-14.4,96,68,5.93,broken clouds
228,San Pedro,PH,14.35,121.0167,81.63,80,40,9.22,scattered clouds
229,Broken Hill,AU,-31.95,141.4333,80.31,36,40,10.36,scattered clouds
230,Nome,US,64.5011,-165.4064,23.07,23,0,21.85,clear sky
231,Klaksvik,FO,62.2266,-6.589,45.52,92,100,24.23,overcast clouds
232,Sambava,MG,-14.2667,50.1667,78.48,82,100,10.92,overcast clouds
233,Meulaboh,ID,4.1363,96.1285,79.21,82,59,1.3,broken clouds
234,Petropavlovsk-Kamchatskiy,RU,53.0452,158.6483,28.99,59,75,4.47,broken clouds
235,Pangai,TO,-19.8,-174.35,81.54,75,0,6.85,light rain
236,Palmer,US,42.1584,-72.3287,24.51,55,20,12.66,few clouds
237,Longyearbyen,SJ,78.2186,15.6401,21.04,86,0,1.14,clear sky
238,Synya,RU,65.3718,58.0387,22.71,92,100,5.59,overcast clouds
239,Kismayo,SO,-0.3582,42.5454,83.08,64,39,15.05,scattered clouds
240,Sao Filipe,CV,14.8961,-24.4956,74.82,62,0,15.97,clear sky
241,Merauke,ID,-8.4667,140.3333,81.73,83,99,10.31,overcast clouds
242,Itoman,JP,26.1247,127.6694,70.57,85,20,4.61,few clouds
243,Daru,PG,-9.0763,143.2092,81.16,85,94,8.21,overcast clouds
244,Wichita Falls,US,33.9137,-98.4934,39.25,42,0,13.8,clear sky
245,Amarpur,IN,25.0333,86.9,82.15,17,0,2.91,clear sky
246,Ferrol,ES,43.4832,-8.2369,52.32,83,100,18.61,overcast clouds
247,Tignere,CM,7.3667,12.65,93.29,13,46,5.77,scattered clouds
248,College,US,64.8569,-147.8028,-11.25,64,0,0.0,clear sky
249,Egvekinot,RU,66.3167,-179.1667,7.7,48,0,8.39,clear sky
250,Cartagena,CO,10.3997,-75.5144,80.22,83,75,3.44,haze
251,Biella,IT,45.5871,8.0859,46.18,59,93,4.36,overcast clouds
252,Rafai,CF,4.95,23.9167,94.57,28,100,1.34,overcast clouds
253,Port Elizabeth,ZA,-33.918,25.5701,68.09,94,20,10.36,few clouds
254,Mana,GF,5.6592,-53.7767,78.08,89,95,8.14,light rain
255,Rundu,NA,-17.9333,19.7667,76.12,61,100,3.67,light rain
256,Minot,US,48.2325,-101.2963,25.02,80,0,10.36,clear sky
257,Choix,MX,26.7092,-108.3219,54.54,27,14,5.46,few clouds
258,Pitimbu,BR,-7.4706,-34.8086,81.19,69,98,6.29,overcast clouds
259,Kudahuvadhoo,MV,2.6708,72.8944,83.46,69,10,8.86,clear sky
260,Marrakesh,MA,31.6315,-8.0083,69.87,52,2,4.61,clear sky
261,Miandrivazo,MG,-19.5167,45.4667,90.23,50,100,5.91,overcast clouds
262,Lander,US,42.833,-108.7307,32.4,64,40,4.61,scattered clouds
263,Orotukan,RU,62.2667,151.7,-8.43,100,100,3.85,overcast clouds
264,Aqtobe,KZ,50.2797,57.2072,14.09,67,0,4.47,clear sky
265,Jardim,BR,-21.4803,-56.1381,70.03,98,100,4.21,light rain
266,Curitibanos,BR,-27.2828,-50.5844,57.92,100,100,3.24,overcast clouds
267,Bereda,ES,43.2686,-7.5406,49.14,76,90,9.8,light rain
268,Ostrovnoy,RU,68.0531,39.5131,28.02,83,100,10.54,overcast clouds
269,Husavik,IS,66.0449,-17.3389,31.41,75,5,10.96,clear sky
270,Kloulklubed,PW,7.0419,134.2556,77.5,80,100,13.6,overcast clouds
271,Chernihiv,UA,51.0,32.0,33.82,59,100,6.85,overcast clouds
272,Somerset East,ZA,-32.7217,25.588,70.21,85,98,18.14,heavy intensity rain
273,Sterling,US,39.0062,-77.4286,25.66,58,20,4.61,few clouds
274,Yinchuan,CN,38.4681,106.2731,56.5,26,91,5.7,overcast clouds
275,Ulsteinvik,NO,62.3432,5.8487,53.73,65,100,5.75,overcast clouds
276,Dingle,PH,10.9995,122.6711,78.57,89,100,6.22,overcast clouds
277,Okha,RU,53.5739,142.9478,5.68,100,80,4.12,broken clouds
278,Nampula,MZ,-15.1165,39.2666,76.95,88,75,14.97,thunderstorm with light rain
279,Sokoni,TZ,-6.4333,39.55,82.31,69,15,12.08,few clouds
280,Pinawa,CA,50.1489,-95.8811,6.53,94,100,8.97,overcast clouds
281,Aleppo,SY,36.25,37.5,40.06,93,100,3.69,light rain
282,Harindanga,IN,22.0383,88.3214,84.27,21,100,4.34,overcast clouds
283,Antofagasta,CL,-23.65,-70.4,65.48,72,31,3.89,scattered clouds
284,Berlevag,NO,70.8578,29.0864,36.03,88,90,9.37,overcast clouds
285,Nefteyugansk,RU,61.0998,72.6035,4.68,93,100,6.38,overcast clouds
286,Bara,NG,10.3744,10.7288,98.44,9,100,9.28,overcast clouds
287,Vagur,FO,61.4732,-6.8119,44.4,90,100,25.52,overcast clouds
288,Port Macquarie,AU,-31.4333,152.9167,64.89,83,9,2.82,clear sky
289,Nurota,UZ,40.5614,65.6886,53.17,47,100,5.73,overcast clouds
290,Richards Bay,ZA,-28.783,32.0377,89.26,53,0,18.48,clear sky
291,Kpandu,GH,6.9954,0.2931,89.71,50,85,3.62,overcast clouds
292,Tyler,US,32.3513,-95.3011,38.89,65,0,6.91,clear sky
293,Conakry,GN,9.538,-13.6773,79.74,70,9,7.81,clear sky
294,Ahuimanu,US,21.4447,-157.8378,73.85,78,20,8.05,few clouds
295,Shahrud,IR,36.4182,54.9763,64.51,20,0,17.9,clear sky
296,Robertsport,LR,6.7533,-11.3686,81.84,77,100,5.19,light rain
297,Alyangula,AU,-13.8483,136.4192,82.27,89,100,0.0,overcast clouds
298,Poum,NC,-20.2333,164.0167,81.66,78,22,16.37,few clouds
299,Todos Santos,MX,23.45,-110.2167,63.18,30,11,3.02,few clouds
300,Kathmandu,NP,27.7167,85.3167,70.02,52,20,4.61,few clouds
301,Tiksi,RU,71.6872,128.8694,-22.27,100,97,3.42,overcast clouds
302,Oriximina,BR,-1.7656,-55.8661,77.43,91,99,2.19,moderate rain
303,Auburn,US,47.3073,-122.2284,45.45,92,20,1.99,few clouds
304,Saint-Pierre,RE,-21.3393,55.4781,79.92,86,75,24.16,broken clouds
305,Codrington,AU,-38.2667,141.9667,61.23,95,18,8.66,few clouds
306,Cochrane,CA,51.1834,-114.4687,30.47,55,100,7.72,light snow
307,Rocha,UY,-34.4833,-54.3333,66.56,60,77,3.71,broken clouds
308,Palmerston,AU,-12.486,130.9833,75.18,94,75,5.75,light intensity shower rain
309,Port Hardy,CA,50.6996,-127.4199,42.8,87,100,10.36,overcast clouds
310,Zhuhai,CN,22.2769,113.5678,78.85,94,0,3.44,clear sky
311,Arraial Do Cabo,BR,-22.9661,-42.0278,87.76,51,0,13.8,clear sky
312,Denpasar,ID,-8.65,115.2167,82.06,83,75,10.36,broken clouds
313,Parainen,FI,60.3067,22.301,46.85,76,100,4.63,overcast clouds
314,Pocola,US,35.2312,-94.478,36.14,75,0,0.0,clear sky
315,Tigil,RU,57.8,158.6667,0.55,99,33,2.53,scattered clouds
316,Vila,PT,42.0304,-8.1588,41.88,89,100,7.38,overcast clouds
317,Homer,US,59.6425,-151.5483,35.8,81,0,11.99,clear sky
318,Tsumeb,NA,-19.2333,17.7167,72.84,69,100,8.79,light rain
319,Simao,CN,22.7886,100.9748,70.72,34,0,1.92,clear sky
320,Margate,GB,51.3813,1.3862,50.7,77,100,8.01,light rain
321,Sombrio,BR,-29.1139,-49.6167,69.93,96,100,3.09,moderate rain
322,Novo Aripuana,BR,-5.1206,-60.3797,79.16,85,100,2.42,overcast clouds
323,Nicoya,CR,10.1483,-85.452,76.42,72,6,7.58,clear sky
324,Ulaanbaatar,MN,47.9077,106.8832,24.93,86,75,2.24,broken clouds
325,Olga,RU,43.7444,135.2892,28.58,97,29,3.67,scattered clouds
326,Atar,MR,20.5169,-13.0499,88.03,6,0,8.93,clear sky
327,Kodiak,US,57.79,-152.4072,36.91,87,100,10.36,overcast clouds
328,Barra Patuca,HN,15.8,-84.2833,78.22,81,3,5.1,clear sky
329,Gat,IL,31.61,34.7642,56.8,100,86,16.17,overcast clouds
330,Tautira,PF,-17.7333,-149.15,80.4,75,100,8.46,light rain
331,Xinxiang,CN,35.3089,113.8672,62.58,60,1,6.55,clear sky
332,Kruisfontein,ZA,-34.0033,24.7314,65.88,89,100,7.49,moderate rain
333,Roblin,CA,51.23,-101.3565,-9.6,100,96,3.83,overcast clouds
334,Tual,ID,-5.6667,132.75,84.81,73,96,6.55,overcast clouds
335,Dhidhdhoo,MV,6.8833,73.1,83.62,70,93,5.17,overcast clouds
336,Manacapuru,BR,-3.2997,-60.6206,79.47,85,100,3.76,overcast clouds
337,Xingcheng,CN,40.6167,120.7167,42.31,54,100,7.67,overcast clouds
338,Ouallam,NE,14.3188,2.0866,99.73,10,7,11.56,clear sky
339,Veraval,IN,20.9,70.3667,82.62,50,0,8.43,clear sky
340,Tura,IN,25.5198,90.2201,74.26,28,54,2.26,broken clouds
341,Eyl,SO,7.9803,49.8164,82.99,56,7,19.62,clear sky
342,Moissala,TD,8.3404,17.7663,106.7,11,0,3.53,clear sky
343,Okhotsk,RU,59.3833,143.3,17.89,96,100,4.7,overcast clouds
344,Ordubad,AZ,38.9059,46.0234,44.29,57,100,4.88,overcast clouds
345,Cidreira,BR,-30.1811,-50.2056,69.39,84,100,12.84,moderate rain
346,Katsuura,JP,35.1333,140.3,62.11,79,100,25.37,overcast clouds
347,Asyut,EG,27.181,31.1837,67.73,22,0,20.42,clear sky
348,Pizarro,CO,4.9533,-77.366,77.58,87,98,3.69,light rain
349,Vila Franca Do Campo,PT,37.7167,-25.4333,59.41,57,72,21.05,broken clouds
350,Caravelas,BR,-17.7125,-39.2481,87.1,54,19,3.36,few clouds
351,Nemuro,JP,43.3236,145.575,30.7,89,100,6.33,light snow
352,Lake Havasu City,US,34.4839,-114.3224,60.1,18,0,3.44,clear sky
353,Kushima,JP,31.4583,131.2333,61.07,86,100,3.76,overcast clouds
354,Pacific Grove,US,36.6177,-121.9166,51.91,90,100,3.0,overcast clouds
355,Shebunino,RU,46.4339,141.8603,26.82,90,100,7.7,overcast clouds
356,Dennery,LC,13.8996,-60.8879,80.73,69,40,25.32,scattered clouds
357,Ibra,OM,22.6906,58.5334,94.55,14,0,13.09,clear sky
358,Atbasar,KZ,51.8,68.3333,15.1,95,100,6.73,overcast clouds
359,San Patricio,US,28.017,-97.5169,53.44,72,0,6.96,clear sky
360,Blenheim,NZ,-41.516,173.9528,53.53,86,31,6.49,scattered clouds
361,Kushiro,JP,42.975,144.3747,31.55,90,100,5.37,overcast clouds
362,Xiaoshi,CN,41.2971,124.1209,39.69,52,69,0.98,broken clouds
363,Nuuk,GL,64.1835,-51.7216,-1.19,93,23,5.84,few clouds
364,Vieira De Leiria,PT,39.8695,-8.9324,59.11,64,75,14.97,broken clouds
365,Mandalgovi,MN,45.7625,106.2708,27.23,63,11,7.83,few clouds
366,Alta Gracia,AR,-31.6529,-64.4283,70.52,53,100,2.62,overcast clouds
367,Padang,ID,-0.9492,100.3543,78.89,88,100,2.86,moderate rain
368,Beringovskiy,RU,63.05,179.3167,-5.57,89,3,6.78,clear sky
369,Blackburn,GB,53.75,-2.4833,55.53,65,100,15.99,overcast clouds
370,Kyra,RU,49.5776,111.9753,22.21,97,100,1.03,overcast clouds
371,Lagoa,PT,39.05,-27.9833,54.64,55,42,18.23,scattered clouds
372,Kroya,ID,-7.6331,109.2461,79.48,88,100,2.75,overcast clouds
373,Waipawa,NZ,-41.4122,175.5153,55.74,65,96,8.68,overcast clouds
374,Tallahassee,US,30.4383,-84.2807,36.86,52,0,5.75,clear sky
375,Basco,PH,20.4487,121.9702,74.12,88,100,19.39,overcast clouds
376,Ulladulla,AU,-35.35,150.4667,61.7,90,2,3.65,clear sky
377,Dicabisagan,PH,17.0818,122.4157,76.75,92,90,5.23,overcast clouds
378,Los Llanos De Aridane,ES,28.6585,-17.9182,64.15,75,75,20.71,broken clouds
379,Belmonte,BR,-15.8631,-38.8828,84.22,63,100,2.89,overcast clouds
380,Xuddur,SO,4.1213,43.8894,96.53,18,54,14.65,broken clouds
381,Salym,RU,60.0625,71.4789,7.14,96,100,3.71,overcast clouds
382,Antananarivo,MG,-18.9137,47.5361,78.76,50,75,9.22,light rain
383,Alofi,NU,-19.0595,-169.9187,69.69,100,100,1.14,overcast clouds
384,Mount Gambier,AU,-37.8333,140.7667,58.91,82,98,8.05,overcast clouds
385,Jiuquan,CN,39.7432,98.5174,54.34,24,100,2.82,overcast clouds
386,Suleja,NG,9.1758,7.1808,100.04,22,88,4.65,overcast clouds
387,Rumphi,MW,-11.0186,33.8575,74.03,87,100,6.04,light rain
388,Del Rio,US,29.3627,-100.8968,37.51,34,0,9.22,clear sky
389,Hede,CN,33.7681,120.2517,50.05,89,98,9.62,overcast clouds
390,Aswan,EG,24.0934,32.907,75.79,9,0,17.31,clear sky
391,Leh,IN,34.1667,77.5833,18.41,70,0,2.64,clear sky
392,Aranos,NA,-24.1333,19.1167,88.43,27,100,13.35,overcast clouds
393,Seoul,KR,37.5683,126.9778,51.19,96,40,8.05,mist
394,Shimoda,JP,34.6667,138.95,60.1,85,100,17.49,overcast clouds
395,Byron Bay,AU,-28.65,153.6167,66.09,79,100,8.32,light rain
396,Axim,GH,4.8699,-2.2405,87.08,65,67,7.74,broken clouds
397,Batagay-Alyta,RU,67.8006,130.4114,-20.81,95,91,5.79,overcast clouds
398,Dzhebariki-Khaya,RU,62.2167,135.8,-13.07,100,99,0.85,overcast clouds
399,Fort Nelson,CA,58.8053,-122.7002,-4.41,77,100,5.75,light snow
400,Gorontalo,ID,0.5412,123.0595,76.32,95,100,2.39,light rain
401,Los Mochis,MX,25.7667,-108.9667,52.05,83,5,2.37,clear sky
402,Marovoay,MG,-16.1,46.6333,85.44,67,100,1.81,overcast clouds
403,Lexington Park,US,38.2668,-76.4538,28.65,51,20,13.8,few clouds
404,Calabozo,VE,8.9242,-67.4293,82.96,57,78,11.39,broken clouds
405,Mabaruma,GY,8.2,-59.7833,77.74,88,14,5.28,few clouds
406,Mtambile,TZ,-5.3833,39.7,84.92,62,57,14.03,broken clouds
407,Bichura,RU,50.5881,107.6022,11.01,95,100,1.07,overcast clouds
408,Paracuru,BR,-3.41,-39.0306,81.1,79,100,1.16,overcast clouds
409,Bikin,RU,46.8161,134.26,25.16,94,90,4.72,overcast clouds
410,Kahului,US,20.8947,-156.47,74.84,77,0,7.0,clear sky
411,Matara,LK,5.9485,80.5353,78.69,83,31,2.24,light rain
412,Sangueya,GN,10.7,-14.3667,95.11,29,64,9.01,broken clouds
413,Ozinki,RU,51.1786,49.6769,9.84,93,23,3.6,few clouds
414,Constitucion,CL,-35.3333,-72.4167,66.9,53,5,0.56,clear sky
415,Marks,RU,51.7111,46.7486,19.22,86,57,4.34,broken clouds
416,Muravlenko,RU,63.7898,74.523,0.46,94,99,10.02,overcast clouds
417,Shakiso,ET,5.75,38.9167,86.7,17,12,9.57,few clouds
418,Henties Bay,NA,-22.116,14.2845,65.43,84,100,13.44,overcast clouds
419,Srivardhan,IN,18.0333,73.0167,84.76,45,34,11.7,scattered clouds
420,Owando,CG,-0.4819,15.8999,92.1,38,97,3.98,overcast clouds
421,Sovetskiy,RU,61.3614,63.5842,11.05,91,100,9.42,overcast clouds
422,Pemberton,CA,50.3164,-122.8027,37.09,97,100,2.21,overcast clouds
423,Fukue,JP,32.6881,128.8419,63.97,87,100,17.13,overcast clouds
424,Nisia Floresta,BR,-6.0911,-35.2086,85.01,66,95,7.54,light rain
425,Vikhorevka,RU,56.1201,101.1636,2.79,99,100,0.65,overcast clouds
426,Djougou,BJ,9.7085,1.666,102.33,17,83,3.11,broken clouds
427,Peterhead,GB,57.5058,-1.7981,45.45,89,100,27.96,overcast clouds
428,Carbonia,IT,39.1672,8.5222,59.95,75,65,7.52,broken clouds
429,Mount Pleasant,US,32.7941,-79.8626,37.99,41,0,8.05,clear sky
430,Gagarin,RU,55.5529,34.9954,32.13,89,98,8.55,overcast clouds
431,Rokiskis,LT,55.9667,25.5833,40.24,62,15,3.8,few clouds
432,Canmore,CA,51.0834,-115.3521,29.68,93,100,0.0,overcast clouds
433,Pingliang,CN,35.5392,106.6861,55.72,31,87,18.28,overcast clouds
434,Sooke,CA,48.3746,-123.7276,45.97,91,100,4.61,overcast clouds
435,Basoko,CD,1.2391,23.616,89.98,45,61,2.77,broken clouds
436,Yol,IN,32.1667,76.2,69.39,56,0,5.3,clear sky
437,Pingxiang,CN,27.6167,113.85,72.91,74,100,2.55,overcast clouds
438,Bonavista,CA,48.6499,-53.1147,44.35,83,100,46.06,light rain
439,Coquimbo,CL,-29.9533,-71.3436,62.33,72,0,2.3,clear sky
440,Nouakchott,MR,18.0858,-15.9785,93.13,19,0,12.19,clear sky
441,Mangai,CD,-4.05,19.5333,85.44,51,80,3.29,broken clouds
442,Asfi,MA,32.2994,-9.2372,60.84,74,100,9.89,overcast clouds
443,Lorengau,PG,-2.0226,147.2712,82.18,77,89,8.52,overcast clouds
444,Coihueco,CL,-36.6167,-71.8333,57.94,82,0,9.22,clear sky
445,Amapa,BR,1.0,-52.0,80.24,84,79,1.63,broken clouds
446,Mitu,CO,1.1983,-70.1733,75.27,95,100,0.89,light rain
447,Shingu,JP,33.7333,135.9833,58.71,91,100,8.1,overcast clouds
448,Sri Aman,MY,1.2376,111.4621,80.65,89,100,0.0,overcast clouds
449,Suluq,LY,31.6682,20.2521,58.73,49,100,5.12,overcast clouds
450,Russkiy Kameshkir,RU,52.8589,46.0892,21.6,91,100,9.04,overcast clouds
451,Batagay,RU,67.6333,134.6333,-15.14,100,100,0.56,overcast clouds
452,Cayenne,GF,4.9333,-52.3333,76.08,1,75,2.3,broken clouds
453,Chabahar,IR,25.2919,60.643,79.2,61,0,8.3,clear sky
454,Port Lincoln,AU,-34.7333,135.8667,69.39,57,100,7.54,overcast clouds
455,Takoradi,GH,4.8845,-1.7554,85.96,69,75,11.45,broken clouds
456,San Quintin,MX,30.4833,-115.95,55.02,83,0,9.04,clear sky
457,Buin,CL,-33.7333,-70.75,74.05,27,0,1.99,clear sky
458,West Point,US,33.6076,-88.6503,30.11,85,0,3.44,clear sky
459,Quatre Cocos,MU,-20.2078,57.7625,77.11,84,55,12.24,light rain
460,Kibray,UZ,41.3873,69.4641,52.32,87,100,3.74,overcast clouds
461,Tanete,ID,-3.9443,119.7848,75.42,93,93,2.13,overcast clouds
462,Geraldton,AU,-28.7667,114.6,72.01,68,2,8.05,clear sky
463,Alabel,PH,6.1018,125.2905,79.41,84,19,3.85,few clouds
464,Talant,FR,47.3369,5.0089,53.4,76,100,4.61,light rain
465,Hamilton,US,39.1834,-84.5333,26.6,64,100,16.11,overcast clouds
466,Muisne,EC,0.6,-80.0333,79.63,76,46,2.44,scattered clouds
467,Abu Kamal,SY,34.4506,40.9171,61.43,22,98,7.63,overcast clouds
468,Novyy Urengoy,RU,66.0833,76.6333,-1.77,100,83,7.54,broken clouds
469,Pimentel,PE,-6.8367,-79.9342,73.69,73,0,4.61,clear sky
470,Fairbanks,US,64.8378,-147.7164,-11.24,64,0,0.0,clear sky
471,Isangel,VU,-19.55,169.2667,77.94,80,94,4.97,overcast clouds
472,Kargasok,RU,59.0556,80.8572,-7.73,100,17,1.39,few clouds
473,Cortez,US,37.3489,-108.5859,30.7,93,0,5.75,clear sky
474,Sendenhorst,DE,51.8333,7.8333,64.06,42,100,9.04,overcast clouds
475,Chon Daen,TH,16.1895,100.8596,94.37,29,100,1.88,overcast clouds
476,Rohru,IN,31.2167,77.75,58.15,40,0,2.73,clear sky
477,Sualkuchi,IN,26.17,91.5709,80.58,57,40,0.0,haze
478,Lebedinyy,RU,58.5167,125.5167,-0.38,99,100,2.06,overcast clouds
479,Goma,CD,-1.6792,29.2228,68.52,83,100,1.72,light rain
480,Hovd,MN,48.0056,91.6419,29.68,56,69,7.52,broken clouds
481,Tateyama,JP,34.9833,139.8667,63.1,79,100,27.04,overcast clouds
482,Teeli,RU,51.0333,90.2333,16.39,97,100,2.08,light snow
483,Madera,US,37.1666,-119.8343,58.08,46,100,1.01,overcast clouds
484,General Roca,AR,-39.0333,-67.5833,65.62,45,71,12.8,broken clouds
485,Severnoye,RU,56.3491,78.3619,1.56,96,26,6.4,scattered clouds
486,Paamiut,GL,61.994,-49.6678,6.13,67,100,5.64,overcast clouds
487,Santiago De Cao,PE,-7.9589,-79.2392,69.93,83,86,6.91,mist
488,Banda Aceh,ID,5.5577,95.3222,81.01,78,14,2.89,few clouds
489,Baragua,CU,21.6967,-78.6328,80.28,68,13,15.21,few clouds
490,Aksu,CN,41.1231,80.2644,57.69,27,100,5.99,overcast clouds
491,Karema,TZ,-6.8205,30.4389,77.47,70,97,5.64,overcast clouds
492,Necochea,AR,-38.5473,-58.7368,67.23,68,89,11.3,overcast clouds
493,Farrukhnagar,IN,17.0778,78.2011,87.51,24,11,6.76,few clouds
494,Camacupa,AO,-12.0167,17.4833,74.82,63,100,7.72,light rain
495,Praya,CV,14.9215,-23.5087,81.14,36,20,27.63,few clouds
496,Beloha,MG,-25.1667,45.05,82.99,60,19,19.39,few clouds
497,Luwuk,ID,-0.9516,122.7875,78.03,90,99,4.27,overcast clouds
498,Christchurch,NZ,-43.5333,172.6333,57.94,77,75,4.61,broken clouds
499,Ismailia,EG,30.6043,32.2723,60.87,48,75,14.97,broken clouds
500,Duldurga,RU,50.6761,113.5931,16.25,95,100,1.12,overcast clouds
501,Arboletes,CO,8.8505,-76.4269,81.79,77,85,1.63,overcast clouds
502,Sydney,AU,-33.8679,151.2073,68.11,88,75,4.61,broken clouds
503,Araouane,ML,18.9048,-3.5265,91.18,6,0,5.73,clear sky
504,Takaungu,KE,-3.6837,39.8566,82.72,68,78,16.17,broken clouds
505,Artyom,AZ,40.4723,50.333,42.94,66,100,17.45,overcast clouds
506,Dalvik,IS,65.9702,-18.5286,35.53,75,43,4.41,scattered clouds
507,Garissa,KE,-0.4536,39.6401,99.81,21,36,6.8,scattered clouds
508,Los Reyes,MX,19.35,-98.9667,51.91,66,0,4.61,clear sky
509,Nouadhibou,MR,20.931,-17.0347,78.78,38,0,17.27,clear sky
510,Yerbogachen,RU,61.2767,108.0108,-22.2,100,25,0.76,scattered clouds
511,Golden,US,39.7555,-105.2211,37.65,58,40,5.01,scattered clouds
512,Semnan,IR,35.5729,53.3971,71.44,15,0,6.91,clear sky
513,Pachino,IT,36.7186,15.0907,50.79,72,100,8.25,overcast clouds
514,Preobrazheniye,RU,42.9019,133.9064,32.2,86,67,3.83,broken clouds
515,Nantucket,US,41.2835,-70.0995,28.51,56,0,27.63,clear sky
516,Luanda,AO,-8.8368,13.2343,81.3,71,100,11.72,overcast clouds
517,Tukrah,LY,32.5341,20.5791,57.7,58,97,9.46,overcast clouds
518,Palmeirais,BR,-5.9778,-43.0633,86.59,62,96,4.36,overcast clouds
519,Acapulco,MX,16.8634,-99.8901,69.62,88,40,4.61,scattered clouds
520,Adrar,MR,20.5022,-10.0711,85.86,7,0,8.59,clear sky
521,Evensk,RU,61.95,159.2333,10.35,78,96,10.13,overcast clouds
522,Kuopio,FI,62.8924,27.677,40.95,60,0,2.3,clear sky
523,Talcahuano,CL,-36.7167,-73.1167,60.48,77,0,5.75,clear sky
524,Taiyuan,CN,37.8694,112.5603,46.26,76,57,8.95,mist
525,Gamba,GA,-2.65,10.0,84.36,66,100,1.59,overcast clouds
526,Murgab,TM,37.4966,61.9714,55.27,94,100,9.22,mist
527,Palana,RU,59.1167,159.9667,2.84,92,9,5.95,clear sky
528,Salalah,OM,17.0151,54.0924,82.49,61,0,4.61,clear sky
529,Mangit,UZ,40.5971,70.9607,56.77,91,100,5.08,overcast clouds
530,Pinega,RU,64.7001,43.3936,26.2,85,99,8.57,overcast clouds
531,Vestmanna,FO,62.1564,-7.1664,43.72,87,100,24.16,overcast clouds
532,Salta,AR,-24.7859,-65.4117,66.58,75,20,1.14,few clouds
533,Porto Walter,BR,-8.2686,-72.7439,72.34,100,100,0.18,overcast clouds
534,Vanimo,PG,-2.6741,141.3028,79.02,88,71,5.19,broken clouds
535,Tarancon,ES,40.0085,-3.0073,52.23,52,45,8.7,scattered clouds
536,Grand Gaube,MU,-20.0064,57.6608,77.4,87,22,10.0,light rain
537,Sulina,RO,45.1559,29.6536,37.29,62,100,3.0,overcast clouds
538,Rio De Janeiro,BR,-22.9028,-43.2075,88.02,67,20,6.91,few clouds
539,Yulara,AU,-25.2406,130.9889,87.64,20,80,3.44,broken clouds
540,Hobyo,SO,5.3505,48.5268,80.89,68,6,18.21,clear sky
541,Kashi,CN,39.4547,75.9797,65.41,19,20,17.9,sand
542,Sorland,NO,67.667,12.6934,42.4,86,65,12.82,broken clouds
543,Taoudenni,ML,22.6783,-3.9836,89.6,6,0,5.97,clear sky
544,Nishihara,JP,26.1842,127.7558,69.85,86,40,4.61,scattered clouds
545,Shelburne,CA,44.0787,-80.2041,14.45,82,100,15.46,overcast clouds
546,Cervo,ES,43.6702,-7.4101,55.96,61,95,12.84,overcast clouds
547,Peleduy,RU,59.6289,112.7406,0.93,99,100,1.23,overcast clouds
548,Iqaluit,CA,63.7506,-68.5145,-25.31,67,20,4.61,few clouds
549,Edwardsville,US,38.8114,-89.9532,43.95,54,40,14.0,scattered clouds
550,Sabha,LY,27.0377,14.4283,69.93,11,0,5.19,clear sky
551,Port Moresby,PG,-9.4431,147.1797,78.22,94,20,2.3,few clouds
552,Olafsvik,IS,64.8945,-23.7142,37.0,73,87,26.17,overcast clouds
553,Ramsar,IR,36.9226,50.6426,47.64,93,100,6.91,light intensity drizzle
554,Mildura,AU,-34.2,142.15,75.16,53,6,4.61,clear sky
555,Kawhia,NZ,-38.0651,174.8183,56.95,73,49,5.12,scattered clouds
556,Arkhangelsk,RU,64.5401,40.5433,32.11,80,75,8.95,broken clouds
557,Portland,US,45.5234,-122.6762,45.18,90,100,14.0,moderate rain
558,Mandan,US,46.8267,-100.8896,31.95,83,0,5.75,clear sky
559,Adra,ES,36.7496,-3.0206,61.05,70,99,10.47,overcast clouds
560,Pafos,CY,34.7667,32.4167,49.78,29,75,20.71,broken clouds
561,Katobu,ID,-4.9408,122.5276,75.79,91,58,1.16,broken clouds
562,Say,NE,13.1007,2.3689,99.16,9,73,8.43,broken clouds
563,Kupang,ID,-10.1667,123.5833,79.5,87,88,4.76,overcast clouds
564,Ponerihouen,NC,-21.0833,165.4,78.94,84,89,7.07,overcast clouds
565,Villamontes,BO,-21.25,-63.5,68.16,89,100,2.04,overcast clouds
566,Rafaela,AR,-31.2503,-61.4867,75.0,41,17,4.45,few clouds
567,Namatanai,PG,-3.6667,152.4333,79.48,81,100,6.6,overcast clouds
568,Ust-Kuyga,RU,70.0167,135.6,-18.56,100,100,2.26,overcast clouds
569,Jega,NG,12.2175,4.3792,100.78,9,100,5.06,overcast clouds
570,Kalabo,ZM,-14.97,22.6814,78.89,63,92,6.02,light rain
571,Trelew,AR,-43.249,-65.3051,74.28,32,10,11.7,clear sky
572,Damghan,IR,36.1683,54.348,65.91,20,0,17.47,clear sky
573,Siquijor,PH,9.2142,123.515,81.55,84,76,5.46,broken clouds
574,Ericeira,PT,38.9627,-9.4156,61.3,61,40,6.91,scattered clouds
575,Guarapari,BR,-20.6667,-40.4975,86.9,63,0,9.95,clear sky
576,Jackson,US,42.4165,-122.8345,42.67,81,100,5.75,overcast clouds
577,Tocopilla,CL,-22.092,-70.1979,72.59,69,20,5.32,few clouds
578,Viedma,AR,-40.8135,-62.9967,67.82,42,57,13.0,broken clouds
579,Ust-Nera,RU,64.5667,143.2,-5.82,98,100,2.42,overcast clouds
580,Slavyanka,RU,42.8633,131.3847,32.65,95,96,6.17,overcast clouds
581,Hualmay,PE,-11.0964,-77.6139,74.52,76,99,5.48,overcast clouds
582,Labuhan,ID,-6.8844,112.2051,79.81,84,100,2.57,light rain
583,Changping,CN,40.2186,116.2197,46.04,60,100,7.0,overcast clouds
584,Mayor Pablo Lagerenza,PY,-19.9309,-60.7718,74.82,48,98,6.29,overcast clouds
585,Greymouth,NZ,-42.4667,171.2,53.82,84,0,6.26,clear sky
586,Matamoros,MX,25.5333,-103.25,44.71,31,0,0.0,clear sky
587,Montrose,US,38.4166,-108.2673,17.53,71,0,3.11,clear sky
588,Saint-Augustin,CA,51.226,-58.6502,16.23,86,100,21.94,overcast clouds
589,Sumbuya,SL,7.6467,-11.9611,99.97,34,100,6.31,overcast clouds
590,Bodmin,GB,50.4715,-4.7243,54.45,71,40,18.41,scattered clouds
591,Sherman,US,33.6357,-96.6089,42.69,48,0,9.22,clear sky
592,Lima,PE,-12.0432,-77.0282,72.39,47,0,4.61,light rain
593,Udachnyy,RU,66.4167,112.4,-25.17,100,40,2.39,scattered clouds
594,Rantepao,ID,-2.9701,119.8978,68.29,96,99,1.95,overcast clouds
595,Khandyga,RU,62.6667,135.6,-14.89,100,95,2.86,overcast clouds
596,Lavumisa,SZ,-27.31,31.892,95.63,27,0,9.46,clear sky
597,Panaba,MX,21.2833,-88.2667,70.68,64,100,13.65,overcast clouds
598,Baruun-Urt,MN,46.6806,113.2792,22.66,74,100,6.17,overcast clouds
599,Tomatlan,MX,19.9333,-105.25,62.11,79,0,3.24,clear sky
600,Chodavaram,IN,17.8333,82.95,84.04,49,100,1.21,overcast clouds
601,Sibolga,ID,1.7427,98.7792,77.67,89,100,2.15,overcast clouds
602,Anadyr,RU,64.75,177.4833,-3.5,76,0,11.18,clear sky
603,Tshikapa,CD,-6.4167,20.8,80.15,67,92,0.89,overcast clouds
604,Ust-Barguzin,RU,53.45,108.9833,1.8,95,100,0.96,overcast clouds
605,Mehran,IR,33.1222,46.1646,67.35,19,0,10.98,clear sky
606,Chardara,KZ,41.2547,67.9692,56.21,54,100,1.48,overcast clouds
607,Harper,LR,4.375,-7.7169,85.12,68,100,6.49,overcast clouds
608,Zhanaozen,KZ,43.3,52.8,38.75,48,94,8.12,overcast clouds
609,Kaputa,ZM,-8.4689,29.6619,75.36,73,76,7.14,light rain
610,Mugur-Aksy,RU,50.35,90.5,18.99,91,100,4.81,overcast clouds
611,Clearwater,US,27.9659,-82.8001,45.93,54,0,11.5,clear sky
612,Gizo,SB,-8.103,156.8419,82.63,68,91,5.17,overcast clouds
613,Matagami,CA,49.7502,-77.6328,-3.89,71,100,4.61,overcast clouds
614,Ixtapa,MX,20.7,-105.2,62.22,94,75,3.44,broken clouds
615,Cururupu,BR,-1.8283,-44.8683,82.02,81,76,2.75,broken clouds
616,Vostok,RU,46.4856,135.8833,21.06,98,100,0.98,light snow
617,Berbera,SO,10.4396,45.0143,80.85,69,84,11.99,broken clouds
618,Bambanglipuro,ID,-7.95,110.2833,80.42,86,100,3.62,overcast clouds
619,Awbari,LY,26.5921,12.7805,70.97,10,0,7.52,clear sky
620,Salinopolis,BR,-0.6136,-47.3561,76.55,93,100,2.71,overcast clouds
621,Mahon,ES,39.8885,4.2658,59.56,88,75,14.97,broken clouds
622,Pisco,PE,-13.7,-76.2167,75.25,78,100,3.44,overcast clouds
623,Anaco,VE,9.4389,-64.4728,83.3,53,84,11.39,broken clouds
624,Luganville,VU,-15.5333,167.1667,79.59,83,100,4.83,overcast clouds
625,Flinders,AU,-34.5833,150.8552,65.37,88,15,4.0,few clouds
626,Teguldet,RU,57.3064,88.1667,-2.54,98,78,4.43,broken clouds
627,Murray Bridge,AU,-35.1167,139.2667,69.82,37,100,4.07,overcast clouds
628,Samoded,RU,63.6083,40.5111,25.84,89,92,8.14,overcast clouds
629,Sao Joao Da Barra,BR,-21.6403,-41.0511,86.09,75,48,9.6,scattered clouds
630,Wuda,CN,39.4994,106.7117,49.23,23,2,17.67,clear sky
631,Gannan,CN,47.9147,123.5031,25.97,75,99,4.05,overcast clouds
632,Yatou,CN,37.15,122.3833,44.4,91,100,1.99,overcast clouds
633,Pirai Do Sul,BR,-24.5261,-49.9486,67.93,96,99,4.29,light rain
634,Batemans Bay,AU,-35.7167,150.1833,67.1,94,7,3.94,clear sky
635,Annau,TM,37.8876,58.516,47.7,71,100,6.91,overcast clouds
636,Dryden,CA,49.7833,-92.7503,10.69,85,100,6.91,overcast clouds
637,Lasa,IT,46.6166,10.7002,47.7,69,17,5.75,few clouds
638,Salas,ES,43.4118,-6.2602,57.34,46,100,0.85,overcast clouds
639,Kimbe,PG,-5.5502,150.1429,77.23,91,99,2.82,overcast clouds
640,Uberlandia,BR,-18.9186,-48.2772,76.21,69,40,5.75,scattered clouds
641,Bogovarovo,RU,58.9785,47.0246,28.38,89,100,3.42,overcast clouds
642,Yuci,CN,37.6803,112.7319,46.15,76,47,8.95,mist
643,Tymovskoye,RU,50.8456,142.655,17.98,98,100,1.3,overcast clouds
644,Luena,AO,-11.7833,19.9167,74.35,68,95,4.63,light rain
645,Kirovskiy,RU,45.0917,133.5136,27.93,98,100,4.0,overcast clouds
646,Dongli,CN,23.5656,116.8194,73.38,68,20,8.95,few clouds
647,Port Augusta,AU,-32.5,137.7667,77.45,24,100,6.22,overcast clouds
648,Balod,IN,20.73,81.2047,80.65,12,0,4.12,clear sky
649,Bereznik,RU,62.8551,42.7072,26.87,88,99,7.81,overcast clouds
650,Manokwari,ID,-0.8667,134.0833,80.4,79,90,0.85,overcast clouds
651,Nuqui,CO,5.7125,-77.2708,79.88,82,90,1.83,light rain
652,Riyadh,SA,24.6877,46.7219,86.14,11,0,7.78,clear sky
653,Killybegs,IE,54.6333,-8.45,47.91,89,97,19.53,overcast clouds
654,Saquena,PE,-4.6667,-73.5167,79.2,84,98,2.06,overcast clouds
655,Iaciara,BR,-14.0958,-46.6317,85.86,55,95,0.92,overcast clouds
656,Brae,GB,60.3964,-1.353,43.5,91,100,27.81,overcast clouds
657,Ascension,US,30.2169,-90.9001,44.01,57,0,4.61,clear sky
658,Ulaangom,MN,49.9811,92.0667,7.75,92,91,5.86,overcast clouds
659,Wanaka,NZ,-44.7,169.15,55.11,79,5,1.86,clear sky
660,Yagodnoye,RU,62.55,149.6667,-8.52,100,100,2.08,overcast clouds
661,Jambi,ID,-1.6,103.6167,76.57,95,100,1.05,overcast clouds
662,Ilo,PE,-17.6394,-71.3375,72.82,79,21,6.35,few clouds
663,Alice Springs,AU,-23.7,133.8833,76.55,25,11,5.75,few clouds
664,Ust-Maya,RU,60.4167,134.5333,-4.56,100,99,0.67,overcast clouds
665,Kozlovka,RU,55.8428,48.2492,25.9,95,100,9.78,light snow
666,Bam,IR,29.106,58.357,86.36,13,55,7.38,broken clouds
667,Roma,US,43.2128,-75.4557,21.81,84,100,8.05,mist
668,Kawalu,ID,-7.3817,108.2082,74.64,97,100,2.35,heavy intensity rain
669,Hohhot,CN,40.8106,111.6522,53.89,22,33,31.32,sand
670,Alexandria,EG,31.2156,29.9553,57.16,58,40,16.11,scattered clouds
671,Carupano,VE,10.6678,-63.2585,81.01,68,98,10.56,overcast clouds
672,Shemonaikha,KZ,50.6328,81.9056,30.96,99,100,7.92,light snow
673,Kitimat,CA,54.0524,-128.6534,32.38,32,100,1.57,overcast clouds
674,Tutoia,BR,-2.7619,-42.2744,84.81,67,60,7.18,broken clouds
675,Mastung,PK,29.7994,66.845,73.33,29,5,6.02,clear sky
676,Abha,SA,18.2164,42.5053,75.02,41,20,14.97,few clouds
677,Domoni,KM,-12.2569,44.5319,82.09,78,100,6.2,overcast clouds
678,Savalou,BJ,7.9281,1.9756,101.25,26,16,4.68,few clouds
679,Alba,PL,52.0324,23.1165,40.87,54,13,7.74,few clouds
680,Korla,CN,41.7597,86.1469,56.62,31,67,1.16,broken clouds
